{
    "fecha": "1590346800",
    "iso": "MEX-AGS",
    "nombre": "Aguascalientes",
    "lat": 21.8823395,
    "long": -102.2825928,
    "confirmados": 625,
    "sospechosos": 0,
    "decesos": 26
},
{
    "fecha": "1590346800",
    "iso": "MEX-BCN",
    "nombre": "Baja California Norte",
    "lat": 31.8714905,
    "long": -116.600708,
    "confirmados": 4282,
    "sospechosos": 0,
    "decesos": 696
},
{
    "fecha": "1590346800",
    "iso": "MEX-BCS",
    "nombre": "Baja California Sur",
    "lat": 24.1443691,
    "long": -110.300499,
    "confirmados": 517,
    "sospechosos": 0,
    "decesos": 31
},
{
    "fecha": "1590346800",
    "iso": "MEX-CMP",
    "nombre": "Campeche",
    "lat": 19.8454,
    "long": -90.5237,
    "confirmados": 526,
    "sospechosos": 0,
    "decesos": 54
},
{
    "fecha": "1590346800",
    "iso": "MEX-CHP",
    "nombre": "Chiapas",
    "lat": 16.7597294,
    "long": -93.1130829,
    "confirmados": 1133,
    "sospechosos": 0,
    "decesos": 65
},
{
    "fecha": "1590346800",
    "iso": "MEX-CHH",
    "nombre": "Chihuahua",
    "lat": 28.6352806,
    "long": -106.0888901,
    "confirmados": 1188,
    "sospechosos": 0,
    "decesos": 249
},
{
    "fecha": "1590346800",
    "iso": "MEX-DTD",
    "nombre": "Ciudad de México",
    "lat": 23.6345005,
    "long": -102.5527878,
    "confirmados": 23618,
    "sospechosos": 0,
    "decesos": 1963
},
{
    "fecha": "1590346800",
    "iso": "MEX-CDZ",
    "nombre": "Coahuila",
    "lat": 26.9068699,
    "long": -101.4205627,
    "confirmados": 829,
    "sospechosos": 0,
    "decesos": 65
},
{
    "fecha": "1590346800",
    "iso": "MEX-COL",
    "nombre": "Colima",
    "lat": 19.2433,
    "long": -103.725,
    "confirmados": 108,
    "sospechosos": 0,
    "decesos": 14
},
{
    "fecha": "1590346800",
    "iso": "MEX-DRN",
    "nombre": "Durango",
    "lat": 24.0203209,
    "long": -104.6575623,
    "confirmados": 230,
    "sospechosos": 0,
    "decesos": 26
},
{
    "fecha": "1590346800",
    "iso": "MEX-GNJ",
    "nombre": "Guanajuato",
    "lat": 21.1290798,
    "long": -101.6737366,
    "confirmados": 1064,
    "sospechosos": 0,
    "decesos": 88
},
{
    "fecha": "1590346800",
    "iso": "MEX-GRR",
    "nombre": "Guerrero",
    "lat": 17.5506001,
    "long": -99.5057831,
    "confirmados": 1148,
    "sospechosos": 0,
    "decesos": 168
},
{
    "fecha": "1590346800",
    "iso": "MEX-HDL",
    "nombre": "Hidalgo",
    "lat": 20.1169701,
    "long": -98.7332916,
    "confirmados": 1232,
    "sospechosos": 0,
    "decesos": 212
},
{
    "fecha": "1590346800",
    "iso": "MEX-JLS",
    "nombre": "Jalisco",
    "lat": 20.6668205,
    "long": -103.3918228,
    "confirmados": 1195,
    "sospechosos": 0,
    "decesos": 107
},
{
    "fecha": "1590346800",
    "iso": "MEX-MEX",
    "nombre": "Estado de México",
    "lat": 19.354167,
    "long": -99.630833,
    "confirmados": 7163,
    "sospechosos": 0,
    "decesos": 846
},
{
    "fecha": "1590346800",
    "iso": "MEX-MDO",
    "nombre": "Michoacán",
    "lat": 19.168611,
    "long": -101.899722,
    "confirmados": 1395,
    "sospechosos": 0,
    "decesos": 116
},
{
    "fecha": "1590346800",
    "iso": "MEX-MRL",
    "nombre": "Morelos",
    "lat": 18.7475,
    "long": -99.070278,
    "confirmados": 1178,
    "sospechosos": 0,
    "decesos": 236
},
{
    "fecha": "1590346800",
    "iso": "MEX-NYR",
    "nombre": "Nayarit",
    "lat": 21.743889,
    "long": -105.228333,
    "confirmados": 401,
    "sospechosos": 0,
    "decesos": 42
},
{
    "fecha": "1590346800",
    "iso": "MEX-NLE",
    "nombre": "Nuevo Leon",
    "lat": 25.566667,
    "long": -99.970556,
    "confirmados": 1154,
    "sospechosos": 0,
    "decesos": 62
},
{
    "fecha": "1590346800",
    "iso": "MEX-OAX",
    "nombre": "Oaxaca",
    "lat": 16.898056,
    "long": -96.414167,
    "confirmados": 988,
    "sospechosos": 0,
    "decesos": 100
},
{
    "fecha": "1590346800",
    "iso": "MEX-PUE",
    "nombre": "Puebla",
    "lat": 19.003611,
    "long": -97.888333,
    "confirmados": 2103,
    "sospechosos": 0,
    "decesos": 257
},
{
    "fecha": "1590346800",
    "iso": "MEX-QDA",
    "nombre": "Queretaro",
    "lat": 20.591,
    "long": -100.391,
    "confirmados": 732,
    "sospechosos": 0,
    "decesos": 75
},
{
    "fecha": "1590346800",
    "iso": "MEX-QRO",
    "nombre": "Quintana Roo",
    "lat": 21.1742897,
    "long": -86.8465576,
    "confirmados": 1597,
    "sospechosos": 0,
    "decesos": 291
},
{
    "fecha": "1590346800",
    "iso": "MEX-SLP",
    "nombre": "San Luis Potosí",
    "lat": 22.1498203,
    "long": -100.9791565,
    "confirmados": 698,
    "sospechosos": 0,
    "decesos": 36
},
{
    "fecha": "1590346800",
    "iso": "MEX-SIN",
    "nombre": "Sinaloa",
    "lat": 24.7903194,
    "long": -107.3878174,
    "confirmados": 2598,
    "sospechosos": 0,
    "decesos": 390
},
{
    "fecha": "1590346800",
    "iso": "MEX-SON",
    "nombre": "Sonora",
    "lat": 29.1026001,
    "long": -110.9773178,
    "confirmados": 1364,
    "sospechosos": 0,
    "decesos": 69
},
{
    "fecha": "1590346800",
    "iso": "MEX-TBS",
    "nombre": "Tabasco",
    "lat": 17.9868908,
    "long": -92.9302826,
    "confirmados": 3135,
    "sospechosos": 0,
    "decesos": 393
},
{
    "fecha": "1590346800",
    "iso": "MEX-TML",
    "nombre": "Tamaulipas",
    "lat": 22.2448406,
    "long": -97.8351974,
    "confirmados": 1224,
    "sospechosos": 0,
    "decesos": 83
},
{
    "fecha": "1590346800",
    "iso": "MEX-TLX",
    "nombre": "Tlaxcala",
    "lat": 19.428889,
    "long": -98.160833,
    "confirmados": 791,
    "sospechosos": 0,
    "decesos": 122
},
{
    "fecha": "1590346800",
    "iso": "MEX-VLL",
    "nombre": "Veracruz",
    "lat": 19.190278,
    "long": -96.153333,
    "confirmados": 2692,
    "sospechosos": 0,
    "decesos": 365
},
{
    "fecha": "1590346800",
    "iso": "MEX-YCT",
    "nombre": "Yucatan",
    "lat": 20.833333,
    "long": -89,
    "confirmados": 1483,
    "sospechosos": 0,
    "decesos": 116
},
{
    "fecha": "1590346800",
    "iso": "MEX-ZCT",
    "nombre": "Zacatecas",
    "lat": 23.292778,
    "long": -102.700556,
    "confirmados": 229,
    "sospechosos": 0,
    "decesos": 27
}