{
    "fecha": "1591815600",
    "iso": "MEX-AGS",
    "nombre": "Aguascalientes",
    "lat": 21.8823395,
    "long": -102.2825928,
    "confirmados": 1266,
    "sospechosos": 0,
    "decesos": 59
},
{
    "fecha": "1591815600",
    "iso": "MEX-BCN",
    "nombre": "Baja California Norte",
    "lat": 31.8714905,
    "long": -116.600708,
    "confirmados": 6525,
    "sospechosos": 0,
    "decesos": 1387
},
{
    "fecha": "1591815600",
    "iso": "MEX-BCS",
    "nombre": "Baja California Sur",
    "lat": 24.1443691,
    "long": -110.300499,
    "confirmados": 851,
    "sospechosos": 0,
    "decesos": 47
},
{
    "fecha": "1591815600",
    "iso": "MEX-CMP",
    "nombre": "Campeche",
    "lat": 19.8454,
    "long": -90.5237,
    "confirmados": 947,
    "sospechosos": 0,
    "decesos": 116
},
{
    "fecha": "1591815600",
    "iso": "MEX-CHP",
    "nombre": "Chiapas",
    "lat": 16.7597294,
    "long": -93.1130829,
    "confirmados": 2798,
    "sospechosos": 0,
    "decesos": 243
},
{
    "fecha": "1591815600",
    "iso": "MEX-CHH",
    "nombre": "Chihuahua",
    "lat": 28.6352806,
    "long": -106.0888901,
    "confirmados": 2071,
    "sospechosos": 0,
    "decesos": 416
},
{
    "fecha": "1591815600",
    "iso": "MEX-DTD",
    "nombre": "Ciudad de México",
    "lat": 23.6345005,
    "long": -102.5527878,
    "confirmados": 40117,
    "sospechosos": 0,
    "decesos": 4106
},
{
    "fecha": "1591815600",
    "iso": "MEX-CDZ",
    "nombre": "Coahuila",
    "lat": 26.9068699,
    "long": -101.4205627,
    "confirmados": 1671,
    "sospechosos": 0,
    "decesos": 105
},
{
    "fecha": "1591815600",
    "iso": "MEX-COL",
    "nombre": "Colima",
    "lat": 19.2433,
    "long": -103.725,
    "confirmados": 238,
    "sospechosos": 0,
    "decesos": 34
},
{
    "fecha": "1591815600",
    "iso": "MEX-DRN",
    "nombre": "Durango",
    "lat": 24.0203209,
    "long": -104.6575623,
    "confirmados": 712,
    "sospechosos": 0,
    "decesos": 56
},
{
    "fecha": "1591815600",
    "iso": "MEX-GNJ",
    "nombre": "Guanajuato",
    "lat": 21.1290798,
    "long": -101.6737366,
    "confirmados": 2970,
    "sospechosos": 0,
    "decesos": 159
},
{
    "fecha": "1591815600",
    "iso": "MEX-GRR",
    "nombre": "Guerrero",
    "lat": 17.5506001,
    "long": -99.5057831,
    "confirmados": 2798,
    "sospechosos": 0,
    "decesos": 477
},
{
    "fecha": "1591815600",
    "iso": "MEX-HDL",
    "nombre": "Hidalgo",
    "lat": 20.1169701,
    "long": -98.7332916,
    "confirmados": 2439,
    "sospechosos": 0,
    "decesos": 430
},
{
    "fecha": "1591815600",
    "iso": "MEX-JLS",
    "nombre": "Jalisco",
    "lat": 20.6668205,
    "long": -103.3918228,
    "confirmados": 3342,
    "sospechosos": 0,
    "decesos": 284
},
{
    "fecha": "1591815600",
    "iso": "MEX-MEX",
    "nombre": "Estado de México",
    "lat": 19.354167,
    "long": -99.630833,
    "confirmados": 13879,
    "sospechosos": 0,
    "decesos": 1761
},
{
    "fecha": "1591815600",
    "iso": "MEX-MDO",
    "nombre": "Michoacán",
    "lat": 19.168611,
    "long": -101.899722,
    "confirmados": 3018,
    "sospechosos": 0,
    "decesos": 257
},
{
    "fecha": "1591815600",
    "iso": "MEX-MRL",
    "nombre": "Morelos",
    "lat": 18.7475,
    "long": -99.070278,
    "confirmados": 1637,
    "sospechosos": 0,
    "decesos": 319
},
{
    "fecha": "1591815600",
    "iso": "MEX-NYR",
    "nombre": "Nayarit",
    "lat": 21.743889,
    "long": -105.228333,
    "confirmados": 835,
    "sospechosos": 0,
    "decesos": 96
},
{
    "fecha": "1591815600",
    "iso": "MEX-NLE",
    "nombre": "Nuevo Leon",
    "lat": 25.566667,
    "long": -99.970556,
    "confirmados": 2128,
    "sospechosos": 0,
    "decesos": 136
},
{
    "fecha": "1591815600",
    "iso": "MEX-OAX",
    "nombre": "Oaxaca",
    "lat": 16.898056,
    "long": -96.414167,
    "confirmados": 2420,
    "sospechosos": 0,
    "decesos": 266
},
{
    "fecha": "1591815600",
    "iso": "MEX-PUE",
    "nombre": "Puebla",
    "lat": 19.003611,
    "long": -97.888333,
    "confirmados": 4818,
    "sospechosos": 0,
    "decesos": 667
},
{
    "fecha": "1591815600",
    "iso": "MEX-QDA",
    "nombre": "Queretaro",
    "lat": 20.591,
    "long": -100.391,
    "confirmados": 1385,
    "sospechosos": 0,
    "decesos": 170
},
{
    "fecha": "1591815600",
    "iso": "MEX-QRO",
    "nombre": "Quintana Roo",
    "lat": 21.1742897,
    "long": -86.8465576,
    "confirmados": 2272,
    "sospechosos": 0,
    "decesos": 448
},
{
    "fecha": "1591815600",
    "iso": "MEX-SLP",
    "nombre": "San Luis Potosí",
    "lat": 22.1498203,
    "long": -100.9791565,
    "confirmados": 1432,
    "sospechosos": 0,
    "decesos": 83
},
{
    "fecha": "1591815600",
    "iso": "MEX-SIN",
    "nombre": "Sinaloa",
    "lat": 24.7903194,
    "long": -107.3878174,
    "confirmados": 5080,
    "sospechosos": 0,
    "decesos": 800
},
{
    "fecha": "1591815600",
    "iso": "MEX-SON",
    "nombre": "Sonora",
    "lat": 29.1026001,
    "long": -110.9773178,
    "confirmados": 3261,
    "sospechosos": 0,
    "decesos": 216
},
{
    "fecha": "1591815600",
    "iso": "MEX-TBS",
    "nombre": "Tabasco",
    "lat": 17.9868908,
    "long": -92.9302826,
    "confirmados": 5979,
    "sospechosos": 0,
    "decesos": 693
},
{
    "fecha": "1591815600",
    "iso": "MEX-TML",
    "nombre": "Tamaulipas",
    "lat": 22.2448406,
    "long": -97.8351974,
    "confirmados": 2540,
    "sospechosos": 0,
    "decesos": 174
},
{
    "fecha": "1591815600",
    "iso": "MEX-TLX",
    "nombre": "Tlaxcala",
    "lat": 19.428889,
    "long": -98.160833,
    "confirmados": 1444,
    "sospechosos": 0,
    "decesos": 204
},
{
    "fecha": "1591815600",
    "iso": "MEX-VLL",
    "nombre": "Veracruz",
    "lat": 19.190278,
    "long": -96.153333,
    "confirmados": 5613,
    "sospechosos": 0,
    "decesos": 870
},
{
    "fecha": "1591815600",
    "iso": "MEX-YCT",
    "nombre": "Yucatan",
    "lat": 20.833333,
    "long": -89,
    "confirmados": 2280,
    "sospechosos": 0,
    "decesos": 225
},
{
    "fecha": "1591815600",
    "iso": "MEX-ZCT",
    "nombre": "Zacatecas",
    "lat": 23.292778,
    "long": -102.700556,
    "confirmados": 418,
    "sospechosos": 0,
    "decesos": 53
}