{
    "fecha": "1591988400",
    "iso": "MEX-AGS",
    "nombre": "Aguascalientes",
    "lat": 21.8823395,
    "long": -102.2825928,
    "confirmados": 1421,
    "sospechosos": 0,
    "decesos": 69
},
{
    "fecha": "1591988400",
    "iso": "MEX-BCN",
    "nombre": "Baja California Norte",
    "lat": 31.8714905,
    "long": -116.600708,
    "confirmados": 6860,
    "sospechosos": 0,
    "decesos": 1439
},
{
    "fecha": "1591988400",
    "iso": "MEX-BCS",
    "nombre": "Baja California Sur",
    "lat": 24.1443691,
    "long": -110.300499,
    "confirmados": 905,
    "sospechosos": 0,
    "decesos": 48
},
{
    "fecha": "1591988400",
    "iso": "MEX-CMP",
    "nombre": "Campeche",
    "lat": 19.8454,
    "long": -90.5237,
    "confirmados": 1031,
    "sospechosos": 0,
    "decesos": 127
},
{
    "fecha": "1591988400",
    "iso": "MEX-CHP",
    "nombre": "Chiapas",
    "lat": 16.7597294,
    "long": -93.1130829,
    "confirmados": 3031,
    "sospechosos": 0,
    "decesos": 264
},
{
    "fecha": "1591988400",
    "iso": "MEX-CHH",
    "nombre": "Chihuahua",
    "lat": 28.6352806,
    "long": -106.0888901,
    "confirmados": 2148,
    "sospechosos": 0,
    "decesos": 449
},
{
    "fecha": "1591988400",
    "iso": "MEX-DTD",
    "nombre": "Ciudad de México",
    "lat": 23.6345005,
    "long": -102.5527878,
    "confirmados": 42746,
    "sospechosos": 0,
    "decesos": 4401
},
{
    "fecha": "1591988400",
    "iso": "MEX-CDZ",
    "nombre": "Coahuila",
    "lat": 26.9068699,
    "long": -101.4205627,
    "confirmados": 1897,
    "sospechosos": 0,
    "decesos": 123
},
{
    "fecha": "1591988400",
    "iso": "MEX-COL",
    "nombre": "Colima",
    "lat": 19.2433,
    "long": -103.725,
    "confirmados": 262,
    "sospechosos": 0,
    "decesos": 36
},
{
    "fecha": "1591988400",
    "iso": "MEX-DRN",
    "nombre": "Durango",
    "lat": 24.0203209,
    "long": -104.6575623,
    "confirmados": 845,
    "sospechosos": 0,
    "decesos": 65
},
{
    "fecha": "1591988400",
    "iso": "MEX-GNJ",
    "nombre": "Guanajuato",
    "lat": 21.1290798,
    "long": -101.6737366,
    "confirmados": 3260,
    "sospechosos": 0,
    "decesos": 178
},
{
    "fecha": "1591988400",
    "iso": "MEX-GRR",
    "nombre": "Guerrero",
    "lat": 17.5506001,
    "long": -99.5057831,
    "confirmados": 3065,
    "sospechosos": 0,
    "decesos": 512
},
{
    "fecha": "1591988400",
    "iso": "MEX-HDL",
    "nombre": "Hidalgo",
    "lat": 20.1169701,
    "long": -98.7332916,
    "confirmados": 2581,
    "sospechosos": 0,
    "decesos": 449
},
{
    "fecha": "1591988400",
    "iso": "MEX-JLS",
    "nombre": "Jalisco",
    "lat": 20.6668205,
    "long": -103.3918228,
    "confirmados": 3742,
    "sospechosos": 0,
    "decesos": 319
},
{
    "fecha": "1591988400",
    "iso": "MEX-MEX",
    "nombre": "Estado de México",
    "lat": 19.354167,
    "long": -99.630833,
    "confirmados": 15071,
    "sospechosos": 0,
    "decesos": 1885
},
{
    "fecha": "1591988400",
    "iso": "MEX-MDO",
    "nombre": "Michoacán",
    "lat": 19.168611,
    "long": -101.899722,
    "confirmados": 3385,
    "sospechosos": 0,
    "decesos": 268
},
{
    "fecha": "1591988400",
    "iso": "MEX-MRL",
    "nombre": "Morelos",
    "lat": 18.7475,
    "long": -99.070278,
    "confirmados": 1725,
    "sospechosos": 0,
    "decesos": 334
},
{
    "fecha": "1591988400",
    "iso": "MEX-NYR",
    "nombre": "Nayarit",
    "lat": 21.743889,
    "long": -105.228333,
    "confirmados": 913,
    "sospechosos": 0,
    "decesos": 108
},
{
    "fecha": "1591988400",
    "iso": "MEX-NLE",
    "nombre": "Nuevo Leon",
    "lat": 25.566667,
    "long": -99.970556,
    "confirmados": 2340,
    "sospechosos": 0,
    "decesos": 156
},
{
    "fecha": "1591988400",
    "iso": "MEX-OAX",
    "nombre": "Oaxaca",
    "lat": 16.898056,
    "long": -96.414167,
    "confirmados": 2748,
    "sospechosos": 0,
    "decesos": 320
},
{
    "fecha": "1591988400",
    "iso": "MEX-PUE",
    "nombre": "Puebla",
    "lat": 19.003611,
    "long": -97.888333,
    "confirmados": 5241,
    "sospechosos": 0,
    "decesos": 717
},
{
    "fecha": "1591988400",
    "iso": "MEX-QDA",
    "nombre": "Queretaro",
    "lat": 20.591,
    "long": -100.391,
    "confirmados": 1456,
    "sospechosos": 0,
    "decesos": 182
},
{
    "fecha": "1591988400",
    "iso": "MEX-QRO",
    "nombre": "Quintana Roo",
    "lat": 21.1742897,
    "long": -86.8465576,
    "confirmados": 2372,
    "sospechosos": 0,
    "decesos": 459
},
{
    "fecha": "1591988400",
    "iso": "MEX-SLP",
    "nombre": "San Luis Potosí",
    "lat": 22.1498203,
    "long": -100.9791565,
    "confirmados": 1584,
    "sospechosos": 0,
    "decesos": 86
},
{
    "fecha": "1591988400",
    "iso": "MEX-SIN",
    "nombre": "Sinaloa",
    "lat": 24.7903194,
    "long": -107.3878174,
    "confirmados": 5333,
    "sospechosos": 0,
    "decesos": 852
},
{
    "fecha": "1591988400",
    "iso": "MEX-SON",
    "nombre": "Sonora",
    "lat": 29.1026001,
    "long": -110.9773178,
    "confirmados": 3593,
    "sospechosos": 0,
    "decesos": 244
},
{
    "fecha": "1591988400",
    "iso": "MEX-TBS",
    "nombre": "Tabasco",
    "lat": 17.9868908,
    "long": -92.9302826,
    "confirmados": 6311,
    "sospechosos": 0,
    "decesos": 716
},
{
    "fecha": "1591988400",
    "iso": "MEX-TML",
    "nombre": "Tamaulipas",
    "lat": 22.2448406,
    "long": -97.8351974,
    "confirmados": 2846,
    "sospechosos": 0,
    "decesos": 188
},
{
    "fecha": "1591988400",
    "iso": "MEX-TLX",
    "nombre": "Tlaxcala",
    "lat": 19.428889,
    "long": -98.160833,
    "confirmados": 1569,
    "sospechosos": 0,
    "decesos": 222
},
{
    "fecha": "1591988400",
    "iso": "MEX-VLL",
    "nombre": "Veracruz",
    "lat": 19.190278,
    "long": -96.153333,
    "confirmados": 6005,
    "sospechosos": 0,
    "decesos": 937
},
{
    "fecha": "1591988400",
    "iso": "MEX-YCT",
    "nombre": "Yucatan",
    "lat": 20.833333,
    "long": -89,
    "confirmados": 2417,
    "sospechosos": 0,
    "decesos": 240
},
{
    "fecha": "1591988400",
    "iso": "MEX-ZCT",
    "nombre": "Zacatecas",
    "lat": 23.292778,
    "long": -102.700556,
    "confirmados": 493,
    "sospechosos": 0,
    "decesos": 55
}