{
    "fecha": "1584385200",
    "iso": "AGU",
    "nombre": "Aguascalientes",
    "lat": 21.8823395,
    "long": -102.2825928,
    "confirmados": 0,
    "sospechosos": 0,
    "decesos": 0
},
{
    "fecha": "1584385200",
    "iso": "BCN",
    "nombre": "Baja California Norte",
    "lat": 31.8714905,
    "long": -116.600708,
    "confirmados": 0,
    "sospechosos": 0,
    "decesos": 0
},
{
    "fecha": "1584385200",
    "iso": "BCS",
    "nombre": "Baja California Sur",
    "lat": 24.1443691,
    "long": -110.300499,
    "confirmados": 0,
    "sospechosos": 0,
    "decesos": 0
},
{
    "fecha": "1584385200",
    "iso": "CAM",
    "nombre": "Campeche",
    "lat": 19.8454,
    "long": -90.5237,
    "confirmados": 0,
    "sospechosos": 0,
    "decesos": 0
},
{
    "fecha": "1584385200",
    "iso": "CHP",
    "nombre": "Chiapas",
    "lat": 16.7597294,
    "long": -93.1130829,
    "confirmados": 1,
    "sospechosos": 0,
    "decesos": 0
},
{
    "fecha": "1584385200",
    "iso": "CHH",
    "nombre": "Chihuahua",
    "lat": 28.6352806,
    "long": -106.0888901,
    "confirmados": 0,
    "sospechosos": 0,
    "decesos": 0
},
{
    "fecha": "1584385200",
    "iso": "CMX",
    "nombre": "Ciudad de México",
    "lat": 23.6345005,
    "long": -102.5527878,
    "confirmados": 5,
    "sospechosos": 0,
    "decesos": 0
},
{
    "fecha": "1584385200",
    "iso": "COA",
    "nombre": "Coahuila",
    "lat": 26.9068699,
    "long": -101.4205627,
    "confirmados": 1,
    "sospechosos": 0,
    "decesos": 0
},
{
    "fecha": "1584385200",
    "iso": "COL",
    "nombre": "Colima",
    "lat": 19.2433,
    "long": -103.725,
    "confirmados": 0,
    "sospechosos": 0,
    "decesos": 0
},
{
    "fecha": "1584385200",
    "iso": "DUR",
    "nombre": "Durango",
    "lat": 24.0203209,
    "long": -104.6575623,
    "confirmados": 1,
    "sospechosos": 0,
    "decesos": 0
},
{
    "fecha": "1584385200",
    "iso": "GUA",
    "nombre": "Guanajuato",
    "lat": 21.1290798,
    "long": -101.6737366,
    "confirmados": 0,
    "sospechosos": 0,
    "decesos": 0
},
{
    "fecha": "1584385200",
    "iso": "GRO",
    "nombre": "Guerrero",
    "lat": 17.5506001,
    "long": -99.5057831,
    "confirmados": 0,
    "sospechosos": 0,
    "decesos": 0
},
{
    "fecha": "1584385200",
    "iso": "HID",
    "nombre": "Hidalgo",
    "lat": 20.1169701,
    "long": -98.7332916,
    "confirmados": 0,
    "sospechosos": 0,
    "decesos": 0
},
{
    "fecha": "1584385200",
    "iso": "JAL",
    "nombre": "Jalisco",
    "lat": 20.6668205,
    "long": -103.3918228,
    "confirmados": 0,
    "sospechosos": 0,
    "decesos": 0
},
{
    "fecha": "1584385200",
    "iso": "MEX",
    "nombre": "Estado de México",
    "lat": 19.354167,
    "long": -99.630833,
    "confirmados": 3,
    "sospechosos": 0,
    "decesos": 0
},
{
    "fecha": "1584385200",
    "iso": "MIC",
    "nombre": "Michoacán",
    "lat": 19.168611,
    "long": -101.899722,
    "confirmados": 0,
    "sospechosos": 0,
    "decesos": 0
},
{
    "fecha": "1584385200",
    "iso": "MOR",
    "nombre": "Morelos",
    "lat": 18.7475,
    "long": -99.070278,
    "confirmados": 0,
    "sospechosos": 0,
    "decesos": 0
},
{
    "fecha": "1584385200",
    "iso": "NAY",
    "nombre": "Nayarit",
    "lat": 21.743889,
    "long": -105.228333,
    "confirmados": 0,
    "sospechosos": 0,
    "decesos": 0
},
{
    "fecha": "1584385200",
    "iso": "NLE",
    "nombre": "Nuevo Leon",
    "lat": 25.566667,
    "long": -99.970556,
    "confirmados": 1,
    "sospechosos": 0,
    "decesos": 0
},
{
    "fecha": "1584385200",
    "iso": "OAX",
    "nombre": "Oaxaca",
    "lat": 16.898056,
    "long": -96.414167,
    "confirmados": 0,
    "sospechosos": 0,
    "decesos": 0
},
{
    "fecha": "1584385200",
    "iso": "PUE",
    "nombre": "Puebla",
    "lat": 19.003611,
    "long": -97.888333,
    "confirmados": 2,
    "sospechosos": 0,
    "decesos": 0
},
{
    "fecha": "1584385200",
    "iso": "QUE",
    "nombre": "Queretaro",
    "lat": 20.591,
    "long": -100.391,
    "confirmados": 1,
    "sospechosos": 0,
    "decesos": 0
},
{
    "fecha": "1584385200",
    "iso": "ROO",
    "nombre": "Quintana Roo",
    "lat": 21.1742897,
    "long": -86.8465576,
    "confirmados": 1,
    "sospechosos": 0,
    "decesos": 0
},
{
    "fecha": "1584385200",
    "iso": "SLP",
    "nombre": "San Luis Potosí",
    "lat": 22.1498203,
    "long": -100.9791565,
    "confirmados": 0,
    "sospechosos": 0,
    "decesos": 0
},
{
    "fecha": "1584385200",
    "iso": "SIN",
    "nombre": "Sinaloa",
    "lat": 24.7903194,
    "long": -107.3878174,
    "confirmados": 0,
    "sospechosos": 0,
    "decesos": 0
},
{
    "fecha": "1584385200",
    "iso": "SON",
    "nombre": "Sonora",
    "lat": 29.1026001,
    "long": -110.9773178,
    "confirmados": 0,
    "sospechosos": 0,
    "decesos": 0
},
{
    "fecha": "1584385200",
    "iso": "TAB",
    "nombre": "Tabasco",
    "lat": 17.9868908,
    "long": -92.9302826,
    "confirmados": 0,
    "sospechosos": 0,
    "decesos": 0
},
{
    "fecha": "1584385200",
    "iso": "TAM",
    "nombre": "Tampico",
    "lat": 22.2448406,
    "long": -97.8351974,
    "confirmados": 0,
    "sospechosos": 0,
    "decesos": 0
},
{
    "fecha": "1584385200",
    "iso": "TLA",
    "nombre": "Tlaxcala",
    "lat": 19.428889,
    "long": -98.160833,
    "confirmados": 0,
    "sospechosos": 0,
    "decesos": 0
},
{
    "fecha": "1584385200",
    "iso": "VER",
    "nombre": "Veracruz",
    "lat": 19.190278,
    "long": -96.153333,
    "confirmados": 0,
    "sospechosos": 0,
    "decesos": 0
},
{
    "fecha": "1584385200",
    "iso": "YUC",
    "nombre": "Yucatan",
    "lat": 20.833333,
    "long": -89,
    "confirmados": 1,
    "sospechosos": 0,
    "decesos": 0
},
{
    "fecha": "1584385200",
    "iso": "ZAC",
    "nombre": "Zacatecas",
    "lat": 23.292778,
    "long": -102.700556,
    "confirmados": 0,
    "sospechosos": 0,
    "decesos": 0
},