{
    "fecha": "1592074800",
    "iso": "MEX-AGS",
    "nombre": "Aguascalientes",
    "lat": 21.8823395,
    "long": -102.2825928,
    "confirmados": 1450,
    "sospechosos": 0,
    "decesos": 70
},
{
    "fecha": "1592074800",
    "iso": "MEX-BCN",
    "nombre": "Baja California Norte",
    "lat": 31.8714905,
    "long": -116.600708,
    "confirmados": 6949,
    "sospechosos": 0,
    "decesos": 1471
},
{
    "fecha": "1592074800",
    "iso": "MEX-BCS",
    "nombre": "Baja California Sur",
    "lat": 24.1443691,
    "long": -110.300499,
    "confirmados": 943,
    "sospechosos": 0,
    "decesos": 49
},
{
    "fecha": "1592074800",
    "iso": "MEX-CMP",
    "nombre": "Campeche",
    "lat": 19.8454,
    "long": -90.5237,
    "confirmados": 1071,
    "sospechosos": 0,
    "decesos": 133
},
{
    "fecha": "1592074800",
    "iso": "MEX-CHP",
    "nombre": "Chiapas",
    "lat": 16.7597294,
    "long": -93.1130829,
    "confirmados": 3071,
    "sospechosos": 0,
    "decesos": 289
},
{
    "fecha": "1592074800",
    "iso": "MEX-CHH",
    "nombre": "Chihuahua",
    "lat": 28.6352806,
    "long": -106.0888901,
    "confirmados": 2221,
    "sospechosos": 0,
    "decesos": 455
},
{
    "fecha": "1592074800",
    "iso": "MEX-DTD",
    "nombre": "Ciudad de México",
    "lat": 23.6345005,
    "long": -102.5527878,
    "confirmados": 43559,
    "sospechosos": 0,
    "decesos": 4503
},
{
    "fecha": "1592074800",
    "iso": "MEX-CDZ",
    "nombre": "Coahuila",
    "lat": 26.9068699,
    "long": -101.4205627,
    "confirmados": 1921,
    "sospechosos": 0,
    "decesos": 130
},
{
    "fecha": "1592074800",
    "iso": "MEX-COL",
    "nombre": "Colima",
    "lat": 19.2433,
    "long": -103.725,
    "confirmados": 274,
    "sospechosos": 0,
    "decesos": 39
},
{
    "fecha": "1592074800",
    "iso": "MEX-DRN",
    "nombre": "Durango",
    "lat": 24.0203209,
    "long": -104.6575623,
    "confirmados": 912,
    "sospechosos": 0,
    "decesos": 73
},
{
    "fecha": "1592074800",
    "iso": "MEX-GNJ",
    "nombre": "Guanajuato",
    "lat": 21.1290798,
    "long": -101.6737366,
    "confirmados": 3410,
    "sospechosos": 0,
    "decesos": 184
},
{
    "fecha": "1592074800",
    "iso": "MEX-GRR",
    "nombre": "Guerrero",
    "lat": 17.5506001,
    "long": -99.5057831,
    "confirmados": 3164,
    "sospechosos": 0,
    "decesos": 534
},
{
    "fecha": "1592074800",
    "iso": "MEX-HDL",
    "nombre": "Hidalgo",
    "lat": 20.1169701,
    "long": -98.7332916,
    "confirmados": 2631,
    "sospechosos": 0,
    "decesos": 459
},
{
    "fecha": "1592074800",
    "iso": "MEX-JLS",
    "nombre": "Jalisco",
    "lat": 20.6668205,
    "long": -103.3918228,
    "confirmados": 3916,
    "sospechosos": 0,
    "decesos": 327
},
{
    "fecha": "1592074800",
    "iso": "MEX-MEX",
    "nombre": "Estado de México",
    "lat": 19.354167,
    "long": -99.630833,
    "confirmados": 15285,
    "sospechosos": 0,
    "decesos": 1931
},
{
    "fecha": "1592074800",
    "iso": "MEX-MDO",
    "nombre": "Michoacán",
    "lat": 19.168611,
    "long": -101.899722,
    "confirmados": 3468,
    "sospechosos": 0,
    "decesos": 272
},
{
    "fecha": "1592074800",
    "iso": "MEX-MRL",
    "nombre": "Morelos",
    "lat": 18.7475,
    "long": -99.070278,
    "confirmados": 1755,
    "sospechosos": 0,
    "decesos": 334
},
{
    "fecha": "1592074800",
    "iso": "MEX-NYR",
    "nombre": "Nayarit",
    "lat": 21.743889,
    "long": -105.228333,
    "confirmados": 947,
    "sospechosos": 0,
    "decesos": 110
},
{
    "fecha": "1592074800",
    "iso": "MEX-NLE",
    "nombre": "Nuevo Leon",
    "lat": 25.566667,
    "long": -99.970556,
    "confirmados": 2462,
    "sospechosos": 0,
    "decesos": 165
},
{
    "fecha": "1592074800",
    "iso": "MEX-OAX",
    "nombre": "Oaxaca",
    "lat": 16.898056,
    "long": -96.414167,
    "confirmados": 2888,
    "sospechosos": 0,
    "decesos": 331
},
{
    "fecha": "1592074800",
    "iso": "MEX-PUE",
    "nombre": "Puebla",
    "lat": 19.003611,
    "long": -97.888333,
    "confirmados": 5469,
    "sospechosos": 0,
    "decesos": 728
},
{
    "fecha": "1592074800",
    "iso": "MEX-QDA",
    "nombre": "Queretaro",
    "lat": 20.591,
    "long": -100.391,
    "confirmados": 1485,
    "sospechosos": 0,
    "decesos": 188
},
{
    "fecha": "1592074800",
    "iso": "MEX-QRO",
    "nombre": "Quintana Roo",
    "lat": 21.1742897,
    "long": -86.8465576,
    "confirmados": 2429,
    "sospechosos": 0,
    "decesos": 464
},
{
    "fecha": "1592074800",
    "iso": "MEX-SLP",
    "nombre": "San Luis Potosí",
    "lat": 22.1498203,
    "long": -100.9791565,
    "confirmados": 1667,
    "sospechosos": 0,
    "decesos": 89
},
{
    "fecha": "1592074800",
    "iso": "MEX-SIN",
    "nombre": "Sinaloa",
    "lat": 24.7903194,
    "long": -107.3878174,
    "confirmados": 5382,
    "sospechosos": 0,
    "decesos": 867
},
{
    "fecha": "1592074800",
    "iso": "MEX-SON",
    "nombre": "Sonora",
    "lat": 29.1026001,
    "long": -110.9773178,
    "confirmados": 3714,
    "sospechosos": 0,
    "decesos": 256
},
{
    "fecha": "1592074800",
    "iso": "MEX-TBS",
    "nombre": "Tabasco",
    "lat": 17.9868908,
    "long": -92.9302826,
    "confirmados": 6505,
    "sospechosos": 0,
    "decesos": 727
},
{
    "fecha": "1592074800",
    "iso": "MEX-TML",
    "nombre": "Tamaulipas",
    "lat": 22.2448406,
    "long": -97.8351974,
    "confirmados": 3003,
    "sospechosos": 0,
    "decesos": 199
},
{
    "fecha": "1592074800",
    "iso": "MEX-TLX",
    "nombre": "Tlaxcala",
    "lat": 19.428889,
    "long": -98.160833,
    "confirmados": 1636,
    "sospechosos": 0,
    "decesos": 222
},
{
    "fecha": "1592074800",
    "iso": "MEX-VLL",
    "nombre": "Veracruz",
    "lat": 19.190278,
    "long": -96.153333,
    "confirmados": 6113,
    "sospechosos": 0,
    "decesos": 973
},
{
    "fecha": "1592074800",
    "iso": "MEX-YCT",
    "nombre": "Yucatan",
    "lat": 20.833333,
    "long": -89,
    "confirmados": 2482,
    "sospechosos": 0,
    "decesos": 246
},
{
    "fecha": "1592074800",
    "iso": "MEX-ZCT",
    "nombre": "Zacatecas",
    "lat": 23.292778,
    "long": -102.700556,
    "confirmados": 508,
    "sospechosos": 0,
    "decesos": 57
}