{
    "fecha": "1591297200",
    "iso": "MEX-AGS",
    "nombre": "Aguascalientes",
    "lat": 21.8823395,
    "long": -102.2825928,
    "confirmados": 1047,
    "sospechosos": 0,
    "decesos": 38
},
{
    "fecha": "1591297200",
    "iso": "MEX-BCN",
    "nombre": "Baja California Norte",
    "lat": 31.8714905,
    "long": -116.600708,
    "confirmados": 5689,
    "sospechosos": 0,
    "decesos": 1137
},
{
    "fecha": "1591297200",
    "iso": "MEX-BCS",
    "nombre": "Baja California Sur",
    "lat": 24.1443691,
    "long": -110.300499,
    "confirmados": 695,
    "sospechosos": 0,
    "decesos": 38
},
{
    "fecha": "1591297200",
    "iso": "MEX-CMP",
    "nombre": "Campeche",
    "lat": 19.8454,
    "long": -90.5237,
    "confirmados": 779,
    "sospechosos": 0,
    "decesos": 103
},
{
    "fecha": "1591297200",
    "iso": "MEX-CHP",
    "nombre": "Chiapas",
    "lat": 16.7597294,
    "long": -93.1130829,
    "confirmados": 2096,
    "sospechosos": 0,
    "decesos": 170
},
{
    "fecha": "1591297200",
    "iso": "MEX-CHH",
    "nombre": "Chihuahua",
    "lat": 28.6352806,
    "long": -106.0888901,
    "confirmados": 1769,
    "sospechosos": 0,
    "decesos": 372
},
{
    "fecha": "1591297200",
    "iso": "MEX-DTD",
    "nombre": "Ciudad de México",
    "lat": 23.6345005,
    "long": -102.5527878,
    "confirmados": 34243,
    "sospechosos": 0,
    "decesos": 3456
},
{
    "fecha": "1591297200",
    "iso": "MEX-CDZ",
    "nombre": "Coahuila",
    "lat": 26.9068699,
    "long": -101.4205627,
    "confirmados": 1313,
    "sospechosos": 0,
    "decesos": 88
},
{
    "fecha": "1591297200",
    "iso": "MEX-COL",
    "nombre": "Colima",
    "lat": 19.2433,
    "long": -103.725,
    "confirmados": 178,
    "sospechosos": 0,
    "decesos": 29
},
{
    "fecha": "1591297200",
    "iso": "MEX-DRN",
    "nombre": "Durango",
    "lat": 24.0203209,
    "long": -104.6575623,
    "confirmados": 491,
    "sospechosos": 0,
    "decesos": 47
},
{
    "fecha": "1591297200",
    "iso": "MEX-GNJ",
    "nombre": "Guanajuato",
    "lat": 21.1290798,
    "long": -101.6737366,
    "confirmados": 2161,
    "sospechosos": 0,
    "decesos": 125
},
{
    "fecha": "1591297200",
    "iso": "MEX-GRR",
    "nombre": "Guerrero",
    "lat": 17.5506001,
    "long": -99.5057831,
    "confirmados": 2081,
    "sospechosos": 0,
    "decesos": 332
},
{
    "fecha": "1591297200",
    "iso": "MEX-HDL",
    "nombre": "Hidalgo",
    "lat": 20.1169701,
    "long": -98.7332916,
    "confirmados": 2052,
    "sospechosos": 0,
    "decesos": 374
},
{
    "fecha": "1591297200",
    "iso": "MEX-JLS",
    "nombre": "Jalisco",
    "lat": 20.6668205,
    "long": -103.3918228,
    "confirmados": 2320,
    "sospechosos": 0,
    "decesos": 192
},
{
    "fecha": "1591297200",
    "iso": "MEX-MEX",
    "nombre": "Estado de México",
    "lat": 19.354167,
    "long": -99.630833,
    "confirmados": 11388,
    "sospechosos": 0,
    "decesos": 1475
},
{
    "fecha": "1591297200",
    "iso": "MEX-MDO",
    "nombre": "Michoacán",
    "lat": 19.168611,
    "long": -101.899722,
    "confirmados": 2257,
    "sospechosos": 0,
    "decesos": 206
},
{
    "fecha": "1591297200",
    "iso": "MEX-MRL",
    "nombre": "Morelos",
    "lat": 18.7475,
    "long": -99.070278,
    "confirmados": 1423,
    "sospechosos": 0,
    "decesos": 288
},
{
    "fecha": "1591297200",
    "iso": "MEX-NYR",
    "nombre": "Nayarit",
    "lat": 21.743889,
    "long": -105.228333,
    "confirmados": 665,
    "sospechosos": 0,
    "decesos": 78
},
{
    "fecha": "1591297200",
    "iso": "MEX-NLE",
    "nombre": "Nuevo Leon",
    "lat": 25.566667,
    "long": -99.970556,
    "confirmados": 1734,
    "sospechosos": 0,
    "decesos": 105
},
{
    "fecha": "1591297200",
    "iso": "MEX-OAX",
    "nombre": "Oaxaca",
    "lat": 16.898056,
    "long": -96.414167,
    "confirmados": 1856,
    "sospechosos": 0,
    "decesos": 205
},
{
    "fecha": "1591297200",
    "iso": "MEX-PUE",
    "nombre": "Puebla",
    "lat": 19.003611,
    "long": -97.888333,
    "confirmados": 3658,
    "sospechosos": 0,
    "decesos": 463
},
{
    "fecha": "1591297200",
    "iso": "MEX-QDA",
    "nombre": "Queretaro",
    "lat": 20.591,
    "long": -100.391,
    "confirmados": 1123,
    "sospechosos": 0,
    "decesos": 127
},
{
    "fecha": "1591297200",
    "iso": "MEX-QRO",
    "nombre": "Quintana Roo",
    "lat": 21.1742897,
    "long": -86.8465576,
    "confirmados": 2061,
    "sospechosos": 0,
    "decesos": 401
},
{
    "fecha": "1591297200",
    "iso": "MEX-SLP",
    "nombre": "San Luis Potosí",
    "lat": 22.1498203,
    "long": -100.9791565,
    "confirmados": 1093,
    "sospechosos": 0,
    "decesos": 60
},
{
    "fecha": "1591297200",
    "iso": "MEX-SIN",
    "nombre": "Sinaloa",
    "lat": 24.7903194,
    "long": -107.3878174,
    "confirmados": 4050,
    "sospechosos": 0,
    "decesos": 646
},
{
    "fecha": "1591297200",
    "iso": "MEX-SON",
    "nombre": "Sonora",
    "lat": 29.1026001,
    "long": -110.9773178,
    "confirmados": 2566,
    "sospechosos": 0,
    "decesos": 156
},
{
    "fecha": "1591297200",
    "iso": "MEX-TBS",
    "nombre": "Tabasco",
    "lat": 17.9868908,
    "long": -92.9302826,
    "confirmados": 5021,
    "sospechosos": 0,
    "decesos": 610
},
{
    "fecha": "1591297200",
    "iso": "MEX-TML",
    "nombre": "Tamaulipas",
    "lat": 22.2448406,
    "long": -97.8351974,
    "confirmados": 1869,
    "sospechosos": 0,
    "decesos": 129
},
{
    "fecha": "1591297200",
    "iso": "MEX-TLX",
    "nombre": "Tlaxcala",
    "lat": 19.428889,
    "long": -98.160833,
    "confirmados": 1189,
    "sospechosos": 0,
    "decesos": 170
},
{
    "fecha": "1591297200",
    "iso": "MEX-VLL",
    "nombre": "Veracruz",
    "lat": 19.190278,
    "long": -96.153333,
    "confirmados": 4468,
    "sospechosos": 0,
    "decesos": 682
},
{
    "fecha": "1591297200",
    "iso": "MEX-YCT",
    "nombre": "Yucatan",
    "lat": 20.833333,
    "long": -89,
    "confirmados": 2010,
    "sospechosos": 0,
    "decesos": 202
},
{
    "fecha": "1591297200",
    "iso": "MEX-ZCT",
    "nombre": "Zacatecas",
    "lat": 23.292778,
    "long": -102.700556,
    "confirmados": 335,
    "sospechosos": 0,
    "decesos": 41
}