{
    "fecha": "1591038000",
    "iso": "MEX-AGS",
    "nombre": "Aguascalientes",
    "lat": 21.8823395,
    "long": -102.2825928,
    "confirmados": 851,
    "sospechosos": 0,
    "decesos": 35
},
{
    "fecha": "1591038000",
    "iso": "MEX-BCN",
    "nombre": "Baja California Norte",
    "lat": 31.8714905,
    "long": -116.600708,
    "confirmados": 5207,
    "sospechosos": 0,
    "decesos": 871
},
{
    "fecha": "1591038000",
    "iso": "MEX-BCS",
    "nombre": "Baja California Sur",
    "lat": 24.1443691,
    "long": -110.300499,
    "confirmados": 629,
    "sospechosos": 0,
    "decesos": 35
},
{
    "fecha": "1591038000",
    "iso": "MEX-CMP",
    "nombre": "Campeche",
    "lat": 19.8454,
    "long": -90.5237,
    "confirmados": 709,
    "sospechosos": 0,
    "decesos": 91
},
{
    "fecha": "1591038000",
    "iso": "MEX-CHP",
    "nombre": "Chiapas",
    "lat": 16.7597294,
    "long": -93.1130829,
    "confirmados": 1879,
    "sospechosos": 0,
    "decesos": 136
},
{
    "fecha": "1591038000",
    "iso": "MEX-CHH",
    "nombre": "Chihuahua",
    "lat": 28.6352806,
    "long": -106.0888901,
    "confirmados": 1627,
    "sospechosos": 0,
    "decesos": 328
},
{
    "fecha": "1591038000",
    "iso": "MEX-DTD",
    "nombre": "Ciudad de México",
    "lat": 23.6345005,
    "long": -102.5527878,
    "confirmados": 30987,
    "sospechosos": 0,
    "decesos": 2713
},
{
    "fecha": "1591038000",
    "iso": "MEX-CDZ",
    "nombre": "Coahuila",
    "lat": 26.9068699,
    "long": -101.4205627,
    "confirmados": 1093,
    "sospechosos": 0,
    "decesos": 81
},
{
    "fecha": "1591038000",
    "iso": "MEX-COL",
    "nombre": "Colima",
    "lat": 19.2433,
    "long": -103.725,
    "confirmados": 149,
    "sospechosos": 0,
    "decesos": 21
},
{
    "fecha": "1591038000",
    "iso": "MEX-DRN",
    "nombre": "Durango",
    "lat": 24.0203209,
    "long": -104.6575623,
    "confirmados": 390,
    "sospechosos": 0,
    "decesos": 37
},
{
    "fecha": "1591038000",
    "iso": "MEX-GNJ",
    "nombre": "Guanajuato",
    "lat": 21.1290798,
    "long": -101.6737366,
    "confirmados": 1697,
    "sospechosos": 0,
    "decesos": 112
},
{
    "fecha": "1591038000",
    "iso": "MEX-GRR",
    "nombre": "Guerrero",
    "lat": 17.5506001,
    "long": -99.5057831,
    "confirmados": 1882,
    "sospechosos": 0,
    "decesos": 272
},
{
    "fecha": "1591038000",
    "iso": "MEX-HDL",
    "nombre": "Hidalgo",
    "lat": 20.1169701,
    "long": -98.7332916,
    "confirmados": 1743,
    "sospechosos": 0,
    "decesos": 318
},
{
    "fecha": "1591038000",
    "iso": "MEX-JLS",
    "nombre": "Jalisco",
    "lat": 20.6668205,
    "long": -103.3918228,
    "confirmados": 1826,
    "sospechosos": 0,
    "decesos": 151
},
{
    "fecha": "1591038000",
    "iso": "MEX-MEX",
    "nombre": "Estado de México",
    "lat": 19.354167,
    "long": -99.630833,
    "confirmados": 10095,
    "sospechosos": 0,
    "decesos": 1168
},
{
    "fecha": "1591038000",
    "iso": "MEX-MDO",
    "nombre": "Michoacán",
    "lat": 19.168611,
    "long": -101.899722,
    "confirmados": 1987,
    "sospechosos": 0,
    "decesos": 169
},
{
    "fecha": "1591038000",
    "iso": "MEX-MRL",
    "nombre": "Morelos",
    "lat": 18.7475,
    "long": -99.070278,
    "confirmados": 1347,
    "sospechosos": 0,
    "decesos": 270
},
{
    "fecha": "1591038000",
    "iso": "MEX-NYR",
    "nombre": "Nayarit",
    "lat": 21.743889,
    "long": -105.228333,
    "confirmados": 597,
    "sospechosos": 0,
    "decesos": 59
},
{
    "fecha": "1591038000",
    "iso": "MEX-NLE",
    "nombre": "Nuevo Leon",
    "lat": 25.566667,
    "long": -99.970556,
    "confirmados": 1488,
    "sospechosos": 0,
    "decesos": 96
},
{
    "fecha": "1591038000",
    "iso": "MEX-OAX",
    "nombre": "Oaxaca",
    "lat": 16.898056,
    "long": -96.414167,
    "confirmados": 1490,
    "sospechosos": 0,
    "decesos": 162
},
{
    "fecha": "1591038000",
    "iso": "MEX-PUE",
    "nombre": "Puebla",
    "lat": 19.003611,
    "long": -97.888333,
    "confirmados": 3146,
    "sospechosos": 0,
    "decesos": 359
},
{
    "fecha": "1591038000",
    "iso": "MEX-QDA",
    "nombre": "Queretaro",
    "lat": 20.591,
    "long": -100.391,
    "confirmados": 998,
    "sospechosos": 0,
    "decesos": 108
},
{
    "fecha": "1591038000",
    "iso": "MEX-QRO",
    "nombre": "Quintana Roo",
    "lat": 21.1742897,
    "long": -86.8465576,
    "confirmados": 1915,
    "sospechosos": 0,
    "decesos": 355
},
{
    "fecha": "1591038000",
    "iso": "MEX-SLP",
    "nombre": "San Luis Potosí",
    "lat": 22.1498203,
    "long": -100.9791565,
    "confirmados": 937,
    "sospechosos": 0,
    "decesos": 54
},
{
    "fecha": "1591038000",
    "iso": "MEX-SIN",
    "nombre": "Sinaloa",
    "lat": 24.7903194,
    "long": -107.3878174,
    "confirmados": 3595,
    "sospechosos": 0,
    "decesos": 522
},
{
    "fecha": "1591038000",
    "iso": "MEX-SON",
    "nombre": "Sonora",
    "lat": 29.1026001,
    "long": -110.9773178,
    "confirmados": 2040,
    "sospechosos": 0,
    "decesos": 116
},
{
    "fecha": "1591038000",
    "iso": "MEX-TBS",
    "nombre": "Tabasco",
    "lat": 17.9868908,
    "long": -92.9302826,
    "confirmados": 4334,
    "sospechosos": 0,
    "decesos": 533
},
{
    "fecha": "1591038000",
    "iso": "MEX-TML",
    "nombre": "Tamaulipas",
    "lat": 22.2448406,
    "long": -97.8351974,
    "confirmados": 1660,
    "sospechosos": 0,
    "decesos": 109
},
{
    "fecha": "1591038000",
    "iso": "MEX-TLX",
    "nombre": "Tlaxcala",
    "lat": 19.428889,
    "long": -98.160833,
    "confirmados": 1063,
    "sospechosos": 0,
    "decesos": 150
},
{
    "fecha": "1591038000",
    "iso": "MEX-VLL",
    "nombre": "Veracruz",
    "lat": 19.190278,
    "long": -96.153333,
    "confirmados": 3894,
    "sospechosos": 0,
    "decesos": 537
},
{
    "fecha": "1591038000",
    "iso": "MEX-YCT",
    "nombre": "Yucatan",
    "lat": 20.833333,
    "long": -89,
    "confirmados": 1859,
    "sospechosos": 0,
    "decesos": 164
},
{
    "fecha": "1591038000",
    "iso": "MEX-ZCT",
    "nombre": "Zacatecas",
    "lat": 23.292778,
    "long": -102.700556,
    "confirmados": 296,
    "sospechosos": 0,
    "decesos": 35
}