{
    "fecha": "1589050800",
    "iso": "MEX-AGS",
    "nombre": "Aguascalientes",
    "lat": 21.8823395,
    "long": -102.2825928,
    "confirmados": 307,
    "sospechosos": 0,
    "decesos": 14
},
{
    "fecha": "1589050800",
    "iso": "MEX-BCN",
    "nombre": "Baja California Norte",
    "lat": 31.8714905,
    "long": -116.600708,
    "confirmados": 2392,
    "sospechosos": 0,
    "decesos": 402
},
{
    "fecha": "1589050800",
    "iso": "MEX-BCS",
    "nombre": "Baja California Sur",
    "lat": 24.1443691,
    "long": -110.300499,
    "confirmados": 377,
    "sospechosos": 0,
    "decesos": 22
},
{
    "fecha": "1589050800",
    "iso": "MEX-CMP",
    "nombre": "Campeche",
    "lat": 19.8454,
    "long": -90.5237,
    "confirmados": 250,
    "sospechosos": 0,
    "decesos": 27
},
{
    "fecha": "1589050800",
    "iso": "MEX-CHP",
    "nombre": "Chiapas",
    "lat": 16.7597294,
    "long": -93.1130829,
    "confirmados": 355,
    "sospechosos": 0,
    "decesos": 19
},
{
    "fecha": "1589050800",
    "iso": "MEX-CHH",
    "nombre": "Chihuahua",
    "lat": 28.6352806,
    "long": -106.0888901,
    "confirmados": 657,
    "sospechosos": 0,
    "decesos": 135
},
{
    "fecha": "1589050800",
    "iso": "MEX-DTD",
    "nombre": "Ciudad de México",
    "lat": 23.6345005,
    "long": -102.5527878,
    "confirmados": 10911,
    "sospechosos": 0,
    "decesos": 774
},
{
    "fecha": "1589050800",
    "iso": "MEX-CDZ",
    "nombre": "Coahuila",
    "lat": 26.9068699,
    "long": -101.4205627,
    "confirmados": 553,
    "sospechosos": 0,
    "decesos": 52
},
{
    "fecha": "1589050800",
    "iso": "MEX-COL",
    "nombre": "Colima",
    "lat": 19.2433,
    "long": -103.725,
    "confirmados": 36,
    "sospechosos": 0,
    "decesos": 6
},
{
    "fecha": "1589050800",
    "iso": "MEX-DRN",
    "nombre": "Durango",
    "lat": 24.0203209,
    "long": -104.6575623,
    "confirmados": 107,
    "sospechosos": 0,
    "decesos": 19
},
{
    "fecha": "1589050800",
    "iso": "MEX-GNJ",
    "nombre": "Guanajuato",
    "lat": 21.1290798,
    "long": -101.6737366,
    "confirmados": 445,
    "sospechosos": 0,
    "decesos": 46
},
{
    "fecha": "1589050800",
    "iso": "MEX-GRR",
    "nombre": "Guerrero",
    "lat": 17.5506001,
    "long": -99.5057831,
    "confirmados": 453,
    "sospechosos": 0,
    "decesos": 64
},
{
    "fecha": "1589050800",
    "iso": "MEX-HDL",
    "nombre": "Hidalgo",
    "lat": 20.1169701,
    "long": -98.7332916,
    "confirmados": 489,
    "sospechosos": 0,
    "decesos": 75
},
{
    "fecha": "1589050800",
    "iso": "MEX-JLS",
    "nombre": "Jalisco",
    "lat": 20.6668205,
    "long": -103.3918228,
    "confirmados": 595,
    "sospechosos": 0,
    "decesos": 48
},
{
    "fecha": "1589050800",
    "iso": "MEX-MEX",
    "nombre": "Estado de México",
    "lat": 19.354167,
    "long": -99.630833,
    "confirmados": 4025,
    "sospechosos": 0,
    "decesos": 321
},
{
    "fecha": "1589050800",
    "iso": "MEX-MDO",
    "nombre": "Michoacán",
    "lat": 19.168611,
    "long": -101.899722,
    "confirmados": 574,
    "sospechosos": 0,
    "decesos": 62
},
{
    "fecha": "1589050800",
    "iso": "MEX-MRL",
    "nombre": "Morelos",
    "lat": 18.7475,
    "long": -99.070278,
    "confirmados": 760,
    "sospechosos": 0,
    "decesos": 99
},
{
    "fecha": "1589050800",
    "iso": "MEX-NYR",
    "nombre": "Nayarit",
    "lat": 21.743889,
    "long": -105.228333,
    "confirmados": 199,
    "sospechosos": 0,
    "decesos": 22
},
{
    "fecha": "1589050800",
    "iso": "MEX-NLE",
    "nombre": "Nuevo Leon",
    "lat": 25.566667,
    "long": -99.970556,
    "confirmados": 616,
    "sospechosos": 0,
    "decesos": 33
},
{
    "fecha": "1589050800",
    "iso": "MEX-OAX",
    "nombre": "Oaxaca",
    "lat": 16.898056,
    "long": -96.414167,
    "confirmados": 221,
    "sospechosos": 0,
    "decesos": 40
},
{
    "fecha": "1589050800",
    "iso": "MEX-PUE",
    "nombre": "Puebla",
    "lat": 19.003611,
    "long": -97.888333,
    "confirmados": 1076,
    "sospechosos": 0,
    "decesos": 145
},
{
    "fecha": "1589050800",
    "iso": "MEX-QDA",
    "nombre": "Queretaro",
    "lat": 20.591,
    "long": -100.391,
    "confirmados": 237,
    "sospechosos": 0,
    "decesos": 21
},
{
    "fecha": "1589050800",
    "iso": "MEX-QRO",
    "nombre": "Quintana Roo",
    "lat": 21.1742897,
    "long": -86.8465576,
    "confirmados": 1062,
    "sospechosos": 0,
    "decesos": 182
},
{
    "fecha": "1589050800",
    "iso": "MEX-SLP",
    "nombre": "San Luis Potosí",
    "lat": 22.1498203,
    "long": -100.9791565,
    "confirmados": 237,
    "sospechosos": 0,
    "decesos": 12
},
{
    "fecha": "1589050800",
    "iso": "MEX-SIN",
    "nombre": "Sinaloa",
    "lat": 24.7903194,
    "long": -107.3878174,
    "confirmados": 1401,
    "sospechosos": 0,
    "decesos": 207
},
{
    "fecha": "1589050800",
    "iso": "MEX-SON",
    "nombre": "Sonora",
    "lat": 29.1026001,
    "long": -110.9773178,
    "confirmados": 440,
    "sospechosos": 0,
    "decesos": 26
},
{
    "fecha": "1589050800",
    "iso": "MEX-TBS",
    "nombre": "Tabasco",
    "lat": 17.9868908,
    "long": -92.9302826,
    "confirmados": 1584,
    "sospechosos": 0,
    "decesos": 211
},
{
    "fecha": "1589050800",
    "iso": "MEX-TML",
    "nombre": "Tamaulipas",
    "lat": 22.2448406,
    "long": -97.8351974,
    "confirmados": 710,
    "sospechosos": 0,
    "decesos": 37
},
{
    "fecha": "1589050800",
    "iso": "MEX-TLX",
    "nombre": "Tlaxcala",
    "lat": 19.428889,
    "long": -98.160833,
    "confirmados": 364,
    "sospechosos": 0,
    "decesos": 53
},
{
    "fecha": "1589050800",
    "iso": "MEX-VLL",
    "nombre": "Veracruz",
    "lat": 19.190278,
    "long": -96.153333,
    "confirmados": 1114,
    "sospechosos": 0,
    "decesos": 121
},
{
    "fecha": "1589050800",
    "iso": "MEX-YCT",
    "nombre": "Yucatan",
    "lat": 20.833333,
    "long": -89,
    "confirmados": 784,
    "sospechosos": 0,
    "decesos": 48
},
{
    "fecha": "1589050800",
    "iso": "MEX-ZCT",
    "nombre": "Zacatecas",
    "lat": 23.292778,
    "long": -102.700556,
    "confirmados": 136,
    "sospechosos": 0,
    "decesos": 18
}