{
    "fecha": "1591902000",
    "iso": "MEX-AGS",
    "nombre": "Aguascalientes",
    "lat": 21.8823395,
    "long": -102.2825928,
    "confirmados": 1338,
    "sospechosos": 0,
    "decesos": 67
},
{
    "fecha": "1591902000",
    "iso": "MEX-BCN",
    "nombre": "Baja California Norte",
    "lat": 31.8714905,
    "long": -116.600708,
    "confirmados": 6708,
    "sospechosos": 0,
    "decesos": 1418
},
{
    "fecha": "1591902000",
    "iso": "MEX-BCS",
    "nombre": "Baja California Sur",
    "lat": 24.1443691,
    "long": -110.300499,
    "confirmados": 900,
    "sospechosos": 0,
    "decesos": 48
},
{
    "fecha": "1591902000",
    "iso": "MEX-CMP",
    "nombre": "Campeche",
    "lat": 19.8454,
    "long": -90.5237,
    "confirmados": 1008,
    "sospechosos": 0,
    "decesos": 122
},
{
    "fecha": "1591902000",
    "iso": "MEX-CHP",
    "nombre": "Chiapas",
    "lat": 16.7597294,
    "long": -93.1130829,
    "confirmados": 2890,
    "sospechosos": 0,
    "decesos": 254
},
{
    "fecha": "1591902000",
    "iso": "MEX-CHH",
    "nombre": "Chihuahua",
    "lat": 28.6352806,
    "long": -106.0888901,
    "confirmados": 2101,
    "sospechosos": 0,
    "decesos": 430
},
{
    "fecha": "1591902000",
    "iso": "MEX-DTD",
    "nombre": "Ciudad de México",
    "lat": 23.6345005,
    "long": -102.5527878,
    "confirmados": 41261,
    "sospechosos": 0,
    "decesos": 4266
},
{
    "fecha": "1591902000",
    "iso": "MEX-CDZ",
    "nombre": "Coahuila",
    "lat": 26.9068699,
    "long": -101.4205627,
    "confirmados": 1866,
    "sospechosos": 0,
    "decesos": 115
},
{
    "fecha": "1591902000",
    "iso": "MEX-COL",
    "nombre": "Colima",
    "lat": 19.2433,
    "long": -103.725,
    "confirmados": 250,
    "sospechosos": 0,
    "decesos": 36
},
{
    "fecha": "1591902000",
    "iso": "MEX-DRN",
    "nombre": "Durango",
    "lat": 24.0203209,
    "long": -104.6575623,
    "confirmados": 759,
    "sospechosos": 0,
    "decesos": 59
},
{
    "fecha": "1591902000",
    "iso": "MEX-GNJ",
    "nombre": "Guanajuato",
    "lat": 21.1290798,
    "long": -101.6737366,
    "confirmados": 3091,
    "sospechosos": 0,
    "decesos": 171
},
{
    "fecha": "1591902000",
    "iso": "MEX-GRR",
    "nombre": "Guerrero",
    "lat": 17.5506001,
    "long": -99.5057831,
    "confirmados": 2924,
    "sospechosos": 0,
    "decesos": 496
},
{
    "fecha": "1591902000",
    "iso": "MEX-HDL",
    "nombre": "Hidalgo",
    "lat": 20.1169701,
    "long": -98.7332916,
    "confirmados": 2492,
    "sospechosos": 0,
    "decesos": 433
},
{
    "fecha": "1591902000",
    "iso": "MEX-JLS",
    "nombre": "Jalisco",
    "lat": 20.6668205,
    "long": -103.3918228,
    "confirmados": 3547,
    "sospechosos": 0,
    "decesos": 310
},
{
    "fecha": "1591902000",
    "iso": "MEX-MEX",
    "nombre": "Estado de México",
    "lat": 19.354167,
    "long": -99.630833,
    "confirmados": 14546,
    "sospechosos": 0,
    "decesos": 1831
},
{
    "fecha": "1591902000",
    "iso": "MEX-MDO",
    "nombre": "Michoacán",
    "lat": 19.168611,
    "long": -101.899722,
    "confirmados": 3232,
    "sospechosos": 0,
    "decesos": 262
},
{
    "fecha": "1591902000",
    "iso": "MEX-MRL",
    "nombre": "Morelos",
    "lat": 18.7475,
    "long": -99.070278,
    "confirmados": 1677,
    "sospechosos": 0,
    "decesos": 326
},
{
    "fecha": "1591902000",
    "iso": "MEX-NYR",
    "nombre": "Nayarit",
    "lat": 21.743889,
    "long": -105.228333,
    "confirmados": 871,
    "sospechosos": 0,
    "decesos": 101
},
{
    "fecha": "1591902000",
    "iso": "MEX-NLE",
    "nombre": "Nuevo Leon",
    "lat": 25.566667,
    "long": -99.970556,
    "confirmados": 2229,
    "sospechosos": 0,
    "decesos": 152
},
{
    "fecha": "1591902000",
    "iso": "MEX-OAX",
    "nombre": "Oaxaca",
    "lat": 16.898056,
    "long": -96.414167,
    "confirmados": 2498,
    "sospechosos": 0,
    "decesos": 289
},
{
    "fecha": "1591902000",
    "iso": "MEX-PUE",
    "nombre": "Puebla",
    "lat": 19.003611,
    "long": -97.888333,
    "confirmados": 5065,
    "sospechosos": 0,
    "decesos": 693
},
{
    "fecha": "1591902000",
    "iso": "MEX-QDA",
    "nombre": "Queretaro",
    "lat": 20.591,
    "long": -100.391,
    "confirmados": 1425,
    "sospechosos": 0,
    "decesos": 174
},
{
    "fecha": "1591902000",
    "iso": "MEX-QRO",
    "nombre": "Quintana Roo",
    "lat": 21.1742897,
    "long": -86.8465576,
    "confirmados": 2317,
    "sospechosos": 0,
    "decesos": 456
},
{
    "fecha": "1591902000",
    "iso": "MEX-SLP",
    "nombre": "San Luis Potosí",
    "lat": 22.1498203,
    "long": -100.9791565,
    "confirmados": 1536,
    "sospechosos": 0,
    "decesos": 84
},
{
    "fecha": "1591902000",
    "iso": "MEX-SIN",
    "nombre": "Sinaloa",
    "lat": 24.7903194,
    "long": -107.3878174,
    "confirmados": 5210,
    "sospechosos": 0,
    "decesos": 835
},
{
    "fecha": "1591902000",
    "iso": "MEX-SON",
    "nombre": "Sonora",
    "lat": 29.1026001,
    "long": -110.9773178,
    "confirmados": 3433,
    "sospechosos": 0,
    "decesos": 230
},
{
    "fecha": "1591902000",
    "iso": "MEX-TBS",
    "nombre": "Tabasco",
    "lat": 17.9868908,
    "long": -92.9302826,
    "confirmados": 6120,
    "sospechosos": 0,
    "decesos": 711
},
{
    "fecha": "1591902000",
    "iso": "MEX-TML",
    "nombre": "Tamaulipas",
    "lat": 22.2448406,
    "long": -97.8351974,
    "confirmados": 2615,
    "sospechosos": 0,
    "decesos": 180
},
{
    "fecha": "1591902000",
    "iso": "MEX-TLX",
    "nombre": "Tlaxcala",
    "lat": 19.428889,
    "long": -98.160833,
    "confirmados": 1501,
    "sospechosos": 0,
    "decesos": 215
},
{
    "fecha": "1591902000",
    "iso": "MEX-VLL",
    "nombre": "Veracruz",
    "lat": 19.190278,
    "long": -96.153333,
    "confirmados": 5779,
    "sospechosos": 0,
    "decesos": 911
},
{
    "fecha": "1591902000",
    "iso": "MEX-YCT",
    "nombre": "Yucatan",
    "lat": 20.833333,
    "long": -89,
    "confirmados": 2334,
    "sospechosos": 0,
    "decesos": 232
},
{
    "fecha": "1591902000",
    "iso": "MEX-ZCT",
    "nombre": "Zacatecas",
    "lat": 23.292778,
    "long": -102.700556,
    "confirmados": 451,
    "sospechosos": 0,
    "decesos": 55
}