{
    "fecha": "1590606000",
    "iso": "MEX-AGS",
    "nombre": "Aguascalientes",
    "lat": 21.8823395,
    "long": -102.2825928,
    "confirmados": 726,
    "sospechosos": 0,
    "decesos": 32
},
{
    "fecha": "1590606000",
    "iso": "MEX-BCN",
    "nombre": "Baja California Norte",
    "lat": 31.8714905,
    "long": -116.600708,
    "confirmados": 4659,
    "sospechosos": 0,
    "decesos": 773
},
{
    "fecha": "1590606000",
    "iso": "MEX-BCS",
    "nombre": "Baja California Sur",
    "lat": 24.1443691,
    "long": -110.300499,
    "confirmados": 542,
    "sospechosos": 0,
    "decesos": 32
},
{
    "fecha": "1590606000",
    "iso": "MEX-CMP",
    "nombre": "Campeche",
    "lat": 19.8454,
    "long": -90.5237,
    "confirmados": 583,
    "sospechosos": 0,
    "decesos": 70
},
{
    "fecha": "1590606000",
    "iso": "MEX-CHP",
    "nombre": "Chiapas",
    "lat": 16.7597294,
    "long": -93.1130829,
    "confirmados": 1352,
    "sospechosos": 0,
    "decesos": 101
},
{
    "fecha": "1590606000",
    "iso": "MEX-CHH",
    "nombre": "Chihuahua",
    "lat": 28.6352806,
    "long": -106.0888901,
    "confirmados": 1358,
    "sospechosos": 0,
    "decesos": 286
},
{
    "fecha": "1590606000",
    "iso": "MEX-DTD",
    "nombre": "Ciudad de México",
    "lat": 23.6345005,
    "long": -102.5527878,
    "confirmados": 26137,
    "sospechosos": 0,
    "decesos": 2313
},
{
    "fecha": "1590606000",
    "iso": "MEX-CDZ",
    "nombre": "Coahuila",
    "lat": 26.9068699,
    "long": -101.4205627,
    "confirmados": 970,
    "sospechosos": 0,
    "decesos": 72
},
{
    "fecha": "1590606000",
    "iso": "MEX-COL",
    "nombre": "Colima",
    "lat": 19.2433,
    "long": -103.725,
    "confirmados": 125,
    "sospechosos": 0,
    "decesos": 21
},
{
    "fecha": "1590606000",
    "iso": "MEX-DRN",
    "nombre": "Durango",
    "lat": 24.0203209,
    "long": -104.6575623,
    "confirmados": 272,
    "sospechosos": 0,
    "decesos": 32
},
{
    "fecha": "1590606000",
    "iso": "MEX-GNJ",
    "nombre": "Guanajuato",
    "lat": 21.1290798,
    "long": -101.6737366,
    "confirmados": 1248,
    "sospechosos": 0,
    "decesos": 101
},
{
    "fecha": "1590606000",
    "iso": "MEX-GRR",
    "nombre": "Guerrero",
    "lat": 17.5506001,
    "long": -99.5057831,
    "confirmados": 1360,
    "sospechosos": 0,
    "decesos": 210
},
{
    "fecha": "1590606000",
    "iso": "MEX-HDL",
    "nombre": "Hidalgo",
    "lat": 20.1169701,
    "long": -98.7332916,
    "confirmados": 1459,
    "sospechosos": 0,
    "decesos": 247
},
{
    "fecha": "1590606000",
    "iso": "MEX-JLS",
    "nombre": "Jalisco",
    "lat": 20.6668205,
    "long": -103.3918228,
    "confirmados": 1370,
    "sospechosos": 0,
    "decesos": 128
},
{
    "fecha": "1590606000",
    "iso": "MEX-MEX",
    "nombre": "Estado de México",
    "lat": 19.354167,
    "long": -99.630833,
    "confirmados": 8906,
    "sospechosos": 0,
    "decesos": 1002
},
{
    "fecha": "1590606000",
    "iso": "MEX-MDO",
    "nombre": "Michoacán",
    "lat": 19.168611,
    "long": -101.899722,
    "confirmados": 1641,
    "sospechosos": 0,
    "decesos": 143
},
{
    "fecha": "1590606000",
    "iso": "MEX-MRL",
    "nombre": "Morelos",
    "lat": 18.7475,
    "long": -99.070278,
    "confirmados": 1218,
    "sospechosos": 0,
    "decesos": 250
},
{
    "fecha": "1590606000",
    "iso": "MEX-NYR",
    "nombre": "Nayarit",
    "lat": 21.743889,
    "long": -105.228333,
    "confirmados": 457,
    "sospechosos": 0,
    "decesos": 46
},
{
    "fecha": "1590606000",
    "iso": "MEX-NLE",
    "nombre": "Nuevo Leon",
    "lat": 25.566667,
    "long": -99.970556,
    "confirmados": 1293,
    "sospechosos": 0,
    "decesos": 76
},
{
    "fecha": "1590606000",
    "iso": "MEX-OAX",
    "nombre": "Oaxaca",
    "lat": 16.898056,
    "long": -96.414167,
    "confirmados": 1127,
    "sospechosos": 0,
    "decesos": 121
},
{
    "fecha": "1590606000",
    "iso": "MEX-PUE",
    "nombre": "Puebla",
    "lat": 19.003611,
    "long": -97.888333,
    "confirmados": 2475,
    "sospechosos": 0,
    "decesos": 307
},
{
    "fecha": "1590606000",
    "iso": "MEX-QDA",
    "nombre": "Queretaro",
    "lat": 20.591,
    "long": -100.391,
    "confirmados": 835,
    "sospechosos": 0,
    "decesos": 89
},
{
    "fecha": "1590606000",
    "iso": "MEX-QRO",
    "nombre": "Quintana Roo",
    "lat": 21.1742897,
    "long": -86.8465576,
    "confirmados": 1717,
    "sospechosos": 0,
    "decesos": 323
},
{
    "fecha": "1590606000",
    "iso": "MEX-SLP",
    "nombre": "San Luis Potosí",
    "lat": 22.1498203,
    "long": -100.9791565,
    "confirmados": 794,
    "sospechosos": 0,
    "decesos": 46
},
{
    "fecha": "1590606000",
    "iso": "MEX-SIN",
    "nombre": "Sinaloa",
    "lat": 24.7903194,
    "long": -107.3878174,
    "confirmados": 2917,
    "sospechosos": 0,
    "decesos": 431
},
{
    "fecha": "1590606000",
    "iso": "MEX-SON",
    "nombre": "Sonora",
    "lat": 29.1026001,
    "long": -110.9773178,
    "confirmados": 1526,
    "sospechosos": 0,
    "decesos": 88
},
{
    "fecha": "1590606000",
    "iso": "MEX-TBS",
    "nombre": "Tabasco",
    "lat": 17.9868908,
    "long": -92.9302826,
    "confirmados": 3484,
    "sospechosos": 0,
    "decesos": 436
},
{
    "fecha": "1590606000",
    "iso": "MEX-TML",
    "nombre": "Tamaulipas",
    "lat": 22.2448406,
    "long": -97.8351974,
    "confirmados": 1373,
    "sospechosos": 0,
    "decesos": 95
},
{
    "fecha": "1590606000",
    "iso": "MEX-TLX",
    "nombre": "Tlaxcala",
    "lat": 19.428889,
    "long": -98.160833,
    "confirmados": 953,
    "sospechosos": 0,
    "decesos": 135
},
{
    "fecha": "1590606000",
    "iso": "MEX-VLL",
    "nombre": "Veracruz",
    "lat": 19.190278,
    "long": -96.153333,
    "confirmados": 3281,
    "sospechosos": 0,
    "decesos": 430
},
{
    "fecha": "1590606000",
    "iso": "MEX-YCT",
    "nombre": "Yucatan",
    "lat": 20.833333,
    "long": -89,
    "confirmados": 1599,
    "sospechosos": 0,
    "decesos": 132
},
{
    "fecha": "1590606000",
    "iso": "MEX-ZCT",
    "nombre": "Zacatecas",
    "lat": 23.292778,
    "long": -102.700556,
    "confirmados": 256,
    "sospechosos": 0,
    "decesos": 29
}