{
    "fecha": "1590951600",
    "iso": "MEX-AGS",
    "nombre": "Aguascalientes",
    "lat": 21.8823395,
    "long": -102.2825928,
    "confirmados": 826,
    "sospechosos": 0,
    "decesos": 35
},
{
    "fecha": "1590951600",
    "iso": "MEX-BCN",
    "nombre": "Baja California Norte",
    "lat": 31.8714905,
    "long": -116.600708,
    "confirmados": 5154,
    "sospechosos": 0,
    "decesos": 865
},
{
    "fecha": "1590951600",
    "iso": "MEX-BCS",
    "nombre": "Baja California Sur",
    "lat": 24.1443691,
    "long": -110.300499,
    "confirmados": 614,
    "sospechosos": 0,
    "decesos": 35
},
{
    "fecha": "1590951600",
    "iso": "MEX-CMP",
    "nombre": "Campeche",
    "lat": 19.8454,
    "long": -90.5237,
    "confirmados": 684,
    "sospechosos": 0,
    "decesos": 90
},
{
    "fecha": "1590951600",
    "iso": "MEX-CHP",
    "nombre": "Chiapas",
    "lat": 16.7597294,
    "long": -93.1130829,
    "confirmados": 1821,
    "sospechosos": 0,
    "decesos": 135
},
{
    "fecha": "1590951600",
    "iso": "MEX-CHH",
    "nombre": "Chihuahua",
    "lat": 28.6352806,
    "long": -106.0888901,
    "confirmados": 1616,
    "sospechosos": 0,
    "decesos": 318
},
{
    "fecha": "1590951600",
    "iso": "MEX-DTD",
    "nombre": "Ciudad de México",
    "lat": 23.6345005,
    "long": -102.5527878,
    "confirmados": 30103,
    "sospechosos": 0,
    "decesos": 2658
},
{
    "fecha": "1590951600",
    "iso": "MEX-CDZ",
    "nombre": "Coahuila",
    "lat": 26.9068699,
    "long": -101.4205627,
    "confirmados": 1090,
    "sospechosos": 0,
    "decesos": 81
},
{
    "fecha": "1590951600",
    "iso": "MEX-COL",
    "nombre": "Colima",
    "lat": 19.2433,
    "long": -103.725,
    "confirmados": 146,
    "sospechosos": 0,
    "decesos": 21
},
{
    "fecha": "1590951600",
    "iso": "MEX-DRN",
    "nombre": "Durango",
    "lat": 24.0203209,
    "long": -104.6575623,
    "confirmados": 373,
    "sospechosos": 0,
    "decesos": 37
},
{
    "fecha": "1590951600",
    "iso": "MEX-GNJ",
    "nombre": "Guanajuato",
    "lat": 21.1290798,
    "long": -101.6737366,
    "confirmados": 1650,
    "sospechosos": 0,
    "decesos": 107
},
{
    "fecha": "1590951600",
    "iso": "MEX-GRR",
    "nombre": "Guerrero",
    "lat": 17.5506001,
    "long": -99.5057831,
    "confirmados": 1826,
    "sospechosos": 0,
    "decesos": 266
},
{
    "fecha": "1590951600",
    "iso": "MEX-HDL",
    "nombre": "Hidalgo",
    "lat": 20.1169701,
    "long": -98.7332916,
    "confirmados": 1688,
    "sospechosos": 0,
    "decesos": 304
},
{
    "fecha": "1590951600",
    "iso": "MEX-JLS",
    "nombre": "Jalisco",
    "lat": 20.6668205,
    "long": -103.3918228,
    "confirmados": 1787,
    "sospechosos": 0,
    "decesos": 143
},
{
    "fecha": "1590951600",
    "iso": "MEX-MEX",
    "nombre": "Estado de México",
    "lat": 19.354167,
    "long": -99.630833,
    "confirmados": 9855,
    "sospechosos": 0,
    "decesos": 1159
},
{
    "fecha": "1590951600",
    "iso": "MEX-MDO",
    "nombre": "Michoacán",
    "lat": 19.168611,
    "long": -101.899722,
    "confirmados": 1951,
    "sospechosos": 0,
    "decesos": 165
},
{
    "fecha": "1590951600",
    "iso": "MEX-MRL",
    "nombre": "Morelos",
    "lat": 18.7475,
    "long": -99.070278,
    "confirmados": 1341,
    "sospechosos": 0,
    "decesos": 265
},
{
    "fecha": "1590951600",
    "iso": "MEX-NYR",
    "nombre": "Nayarit",
    "lat": 21.743889,
    "long": -105.228333,
    "confirmados": 555,
    "sospechosos": 0,
    "decesos": 53
},
{
    "fecha": "1590951600",
    "iso": "MEX-NLE",
    "nombre": "Nuevo Leon",
    "lat": 25.566667,
    "long": -99.970556,
    "confirmados": 1423,
    "sospechosos": 0,
    "decesos": 88
},
{
    "fecha": "1590951600",
    "iso": "MEX-OAX",
    "nombre": "Oaxaca",
    "lat": 16.898056,
    "long": -96.414167,
    "confirmados": 1397,
    "sospechosos": 0,
    "decesos": 152
},
{
    "fecha": "1590951600",
    "iso": "MEX-PUE",
    "nombre": "Puebla",
    "lat": 19.003611,
    "long": -97.888333,
    "confirmados": 3076,
    "sospechosos": 0,
    "decesos": 350
},
{
    "fecha": "1590951600",
    "iso": "MEX-QDA",
    "nombre": "Queretaro",
    "lat": 20.591,
    "long": -100.391,
    "confirmados": 982,
    "sospechosos": 0,
    "decesos": 105
},
{
    "fecha": "1590951600",
    "iso": "MEX-QRO",
    "nombre": "Quintana Roo",
    "lat": 21.1742897,
    "long": -86.8465576,
    "confirmados": 1871,
    "sospechosos": 0,
    "decesos": 352
},
{
    "fecha": "1590951600",
    "iso": "MEX-SLP",
    "nombre": "San Luis Potosí",
    "lat": 22.1498203,
    "long": -100.9791565,
    "confirmados": 937,
    "sospechosos": 0,
    "decesos": 51
},
{
    "fecha": "1590951600",
    "iso": "MEX-SIN",
    "nombre": "Sinaloa",
    "lat": 24.7903194,
    "long": -107.3878174,
    "confirmados": 3437,
    "sospechosos": 0,
    "decesos": 501
},
{
    "fecha": "1590951600",
    "iso": "MEX-SON",
    "nombre": "Sonora",
    "lat": 29.1026001,
    "long": -110.9773178,
    "confirmados": 1990,
    "sospechosos": 0,
    "decesos": 111
},
{
    "fecha": "1590951600",
    "iso": "MEX-TBS",
    "nombre": "Tabasco",
    "lat": 17.9868908,
    "long": -92.9302826,
    "confirmados": 4149,
    "sospechosos": 0,
    "decesos": 520
},
{
    "fecha": "1590951600",
    "iso": "MEX-TML",
    "nombre": "Tamaulipas",
    "lat": 22.2448406,
    "long": -97.8351974,
    "confirmados": 1569,
    "sospechosos": 0,
    "decesos": 108
},
{
    "fecha": "1590951600",
    "iso": "MEX-TLX",
    "nombre": "Tlaxcala",
    "lat": 19.428889,
    "long": -98.160833,
    "confirmados": 1043,
    "sospechosos": 0,
    "decesos": 148
},
{
    "fecha": "1590951600",
    "iso": "MEX-VLL",
    "nombre": "Veracruz",
    "lat": 19.190278,
    "long": -96.153333,
    "confirmados": 3604,
    "sospechosos": 0,
    "decesos": 518
},
{
    "fecha": "1590951600",
    "iso": "MEX-YCT",
    "nombre": "Yucatan",
    "lat": 20.833333,
    "long": -89,
    "confirmados": 1819,
    "sospechosos": 0,
    "decesos": 155
},
{
    "fecha": "1590951600",
    "iso": "MEX-ZCT",
    "nombre": "Zacatecas",
    "lat": 23.292778,
    "long": -102.700556,
    "confirmados": 287,
    "sospechosos": 0,
    "decesos": 34
}