{
    "fecha": "1591383600",
    "iso": "MEX-AGS",
    "nombre": "Aguascalientes",
    "lat": 21.8823395,
    "long": -102.2825928,
    "confirmados": 1086,
    "sospechosos": 0,
    "decesos": 48
},
{
    "fecha": "1591383600",
    "iso": "MEX-BCN",
    "nombre": "Baja California Norte",
    "lat": 31.8714905,
    "long": -116.600708,
    "confirmados": 5867,
    "sospechosos": 0,
    "decesos": 1200
},
{
    "fecha": "1591383600",
    "iso": "MEX-BCS",
    "nombre": "Baja California Sur",
    "lat": 24.1443691,
    "long": -110.300499,
    "confirmados": 716,
    "sospechosos": 0,
    "decesos": 41
},
{
    "fecha": "1591383600",
    "iso": "MEX-CMP",
    "nombre": "Campeche",
    "lat": 19.8454,
    "long": -90.5237,
    "confirmados": 787,
    "sospechosos": 0,
    "decesos": 103
},
{
    "fecha": "1591383600",
    "iso": "MEX-CHP",
    "nombre": "Chiapas",
    "lat": 16.7597294,
    "long": -93.1130829,
    "confirmados": 2219,
    "sospechosos": 0,
    "decesos": 176
},
{
    "fecha": "1591383600",
    "iso": "MEX-CHH",
    "nombre": "Chihuahua",
    "lat": 28.6352806,
    "long": -106.0888901,
    "confirmados": 1804,
    "sospechosos": 0,
    "decesos": 376
},
{
    "fecha": "1591383600",
    "iso": "MEX-DTD",
    "nombre": "Ciudad de México",
    "lat": 23.6345005,
    "long": -102.5527878,
    "confirmados": 35685,
    "sospechosos": 0,
    "decesos": 3631
},
{
    "fecha": "1591383600",
    "iso": "MEX-CDZ",
    "nombre": "Coahuila",
    "lat": 26.9068699,
    "long": -101.4205627,
    "confirmados": 1357,
    "sospechosos": 0,
    "decesos": 91
},
{
    "fecha": "1591383600",
    "iso": "MEX-COL",
    "nombre": "Colima",
    "lat": 19.2433,
    "long": -103.725,
    "confirmados": 193,
    "sospechosos": 0,
    "decesos": 29
},
{
    "fecha": "1591383600",
    "iso": "MEX-DRN",
    "nombre": "Durango",
    "lat": 24.0203209,
    "long": -104.6575623,
    "confirmados": 529,
    "sospechosos": 0,
    "decesos": 49
},
{
    "fecha": "1591383600",
    "iso": "MEX-GNJ",
    "nombre": "Guanajuato",
    "lat": 21.1290798,
    "long": -101.6737366,
    "confirmados": 2309,
    "sospechosos": 0,
    "decesos": 134
},
{
    "fecha": "1591383600",
    "iso": "MEX-GRR",
    "nombre": "Guerrero",
    "lat": 17.5506001,
    "long": -99.5057831,
    "confirmados": 2245,
    "sospechosos": 0,
    "decesos": 347
},
{
    "fecha": "1591383600",
    "iso": "MEX-HDL",
    "nombre": "Hidalgo",
    "lat": 20.1169701,
    "long": -98.7332916,
    "confirmados": 2101,
    "sospechosos": 0,
    "decesos": 386
},
{
    "fecha": "1591383600",
    "iso": "MEX-JLS",
    "nombre": "Jalisco",
    "lat": 20.6668205,
    "long": -103.3918228,
    "confirmados": 2474,
    "sospechosos": 0,
    "decesos": 213
},
{
    "fecha": "1591383600",
    "iso": "MEX-MEX",
    "nombre": "Estado de México",
    "lat": 19.354167,
    "long": -99.630833,
    "confirmados": 11801,
    "sospechosos": 0,
    "decesos": 1531
},
{
    "fecha": "1591383600",
    "iso": "MEX-MDO",
    "nombre": "Michoacán",
    "lat": 19.168611,
    "long": -101.899722,
    "confirmados": 2359,
    "sospechosos": 0,
    "decesos": 220
},
{
    "fecha": "1591383600",
    "iso": "MEX-MRL",
    "nombre": "Morelos",
    "lat": 18.7475,
    "long": -99.070278,
    "confirmados": 1475,
    "sospechosos": 0,
    "decesos": 295
},
{
    "fecha": "1591383600",
    "iso": "MEX-NYR",
    "nombre": "Nayarit",
    "lat": 21.743889,
    "long": -105.228333,
    "confirmados": 692,
    "sospechosos": 0,
    "decesos": 81
},
{
    "fecha": "1591383600",
    "iso": "MEX-NLE",
    "nombre": "Nuevo Leon",
    "lat": 25.566667,
    "long": -99.970556,
    "confirmados": 1766,
    "sospechosos": 0,
    "decesos": 109
},
{
    "fecha": "1591383600",
    "iso": "MEX-OAX",
    "nombre": "Oaxaca",
    "lat": 16.898056,
    "long": -96.414167,
    "confirmados": 1970,
    "sospechosos": 0,
    "decesos": 215
},
{
    "fecha": "1591383600",
    "iso": "MEX-PUE",
    "nombre": "Puebla",
    "lat": 19.003611,
    "long": -97.888333,
    "confirmados": 3858,
    "sospechosos": 0,
    "decesos": 525
},
{
    "fecha": "1591383600",
    "iso": "MEX-QDA",
    "nombre": "Queretaro",
    "lat": 20.591,
    "long": -100.391,
    "confirmados": 1181,
    "sospechosos": 0,
    "decesos": 139
},
{
    "fecha": "1591383600",
    "iso": "MEX-QRO",
    "nombre": "Quintana Roo",
    "lat": 21.1742897,
    "long": -86.8465576,
    "confirmados": 2105,
    "sospechosos": 0,
    "decesos": 411
},
{
    "fecha": "1591383600",
    "iso": "MEX-SLP",
    "nombre": "San Luis Potosí",
    "lat": 22.1498203,
    "long": -100.9791565,
    "confirmados": 1131,
    "sospechosos": 0,
    "decesos": 62
},
{
    "fecha": "1591383600",
    "iso": "MEX-SIN",
    "nombre": "Sinaloa",
    "lat": 24.7903194,
    "long": -107.3878174,
    "confirmados": 4253,
    "sospechosos": 0,
    "decesos": 673
},
{
    "fecha": "1591383600",
    "iso": "MEX-SON",
    "nombre": "Sonora",
    "lat": 29.1026001,
    "long": -110.9773178,
    "confirmados": 2616,
    "sospechosos": 0,
    "decesos": 165
},
{
    "fecha": "1591383600",
    "iso": "MEX-TBS",
    "nombre": "Tabasco",
    "lat": 17.9868908,
    "long": -92.9302826,
    "confirmados": 5091,
    "sospechosos": 0,
    "decesos": 626
},
{
    "fecha": "1591383600",
    "iso": "MEX-TML",
    "nombre": "Tamaulipas",
    "lat": 22.2448406,
    "long": -97.8351974,
    "confirmados": 1974,
    "sospechosos": 0,
    "decesos": 140
},
{
    "fecha": "1591383600",
    "iso": "MEX-TLX",
    "nombre": "Tlaxcala",
    "lat": 19.428889,
    "long": -98.160833,
    "confirmados": 1232,
    "sospechosos": 0,
    "decesos": 183
},
{
    "fecha": "1591383600",
    "iso": "MEX-VLL",
    "nombre": "Veracruz",
    "lat": 19.190278,
    "long": -96.153333,
    "confirmados": 4755,
    "sospechosos": 0,
    "decesos": 721
},
{
    "fecha": "1591383600",
    "iso": "MEX-YCT",
    "nombre": "Yucatan",
    "lat": 20.833333,
    "long": -89,
    "confirmados": 2057,
    "sospechosos": 0,
    "decesos": 207
},
{
    "fecha": "1591383600",
    "iso": "MEX-ZCT",
    "nombre": "Zacatecas",
    "lat": 23.292778,
    "long": -102.700556,
    "confirmados": 341,
    "sospechosos": 0,
    "decesos": 43
}